site	country	lat	long	elev	IGBP	href
AR-SLu	Argentina	-33.4648	-66.4598		MF	http://sites.fluxdata.org/AR-SLu/
AR-Vir	Argentina	-28.2395	-56.1886		ENF	http://sites.fluxdata.org/AR-Vir/
AT-Neu	Austria	47.1167	11.3175	970	GRA	http://sites.fluxdata.org/AT-Neu/
AU-Ade	Australia	-13.0769	131.1178		WSA	http://sites.fluxdata.org/AU-Ade/
AU-ASM	Australia	-22.283	133.249		ENF	http://sites.fluxdata.org/AU-ASM/
AU-Cpr	Australia	-34.0021	140.5891		SAV	http://sites.fluxdata.org/AU-Cpr/
AU-Cum	Australia	-33.6133	150.7225		EBF	http://sites.fluxdata.org/AU-Cum/
AU-DaP	Australia	-14.0633	131.3181		GRA	http://sites.fluxdata.org/AU-DaP/
AU-DaS	Australia	-14.1593	131.3881		SAV	http://sites.fluxdata.org/AU-DaS/
AU-Dry	Australia	-15.2588	132.3706		SAV	http://sites.fluxdata.org/AU-Dry/
AU-Emr	Australia	-23.8587	148.4746		GRA	http://sites.fluxdata.org/AU-Emr/
AU-Fog	Australia	-12.5452	131.3072		WET	http://sites.fluxdata.org/AU-Fog/
AU-Gin	Australia	-31.3764	115.7138		WSA	http://sites.fluxdata.org/AU-Gin/
AU-GWW	Australia	-30.1913	120.6541		SAV	http://sites.fluxdata.org/AU-GWW/
AU-How	Australia	-12.4943	131.1523		WSA	http://sites.fluxdata.org/AU-How/
AU-Lox	Australia	-34.4704	140.6551		DBF	http://sites.fluxdata.org/AU-Lox/
AU-RDF	Australia	-14.5636	132.4776		WSA	http://sites.fluxdata.org/AU-RDF/
AU-Rig	Australia	-36.6499	145.5759		GRA	http://sites.fluxdata.org/AU-Rig/
AU-Rob	Australia	-17.1175	145.6301		EBF	http://sites.fluxdata.org/AU-Rob/
AU-Stp	Australia	-17.1507	133.3502		GRA	http://sites.fluxdata.org/AU-Stp/
AU-TTE	Australia	-22.287	133.64		OSH	http://sites.fluxdata.org/AU-TTE/
AU-Tum	Australia	-35.6566	148.1517		EBF	http://sites.fluxdata.org/AU-Tum/
AU-Wac	Australia	-37.4259	145.1878		EBF	http://sites.fluxdata.org/AU-Wac/
AU-Whr	Australia	-36.6732	145.0294		EBF	http://sites.fluxdata.org/AU-Whr/
AU-Wom	Australia	-37.4222	144.0944	705	EBF	http://sites.fluxdata.org/AU-Wom/
AU-Ync	Australia	-34.9893	146.2907		GRA	http://sites.fluxdata.org/AU-Ync/
BE-Bra	Belgium	51.3092	4.5206	16	MF	http://sites.fluxdata.org/BE-Bra/
BE-Lon	Belgium	50.5516	4.7461	167	CRO	http://sites.fluxdata.org/BE-Lon/
BE-Vie	Belgium	50.3051	5.9981	493	MF	http://sites.fluxdata.org/BE-Vie/
BR-Sa1	Brazil	-2.8567	-54.9589	88	EBF	http://sites.fluxdata.org/BR-Sa1/
BR-Sa3	Brazil	-3.018	-54.9714	100	EBF	http://sites.fluxdata.org/BR-Sa3/
CA-Gro	Canada	48.2167	-82.1556	340	MF	http://sites.fluxdata.org/CA-Gro/
CA-Man	Canada	55.8796	-98.4808	259	ENF	http://sites.fluxdata.org/CA-Man/
CA-NS1	Canada	55.8792	-98.4839	260	ENF	http://sites.fluxdata.org/CA-NS1/
CA-NS2	Canada	55.9058	-98.5247	260	ENF	http://sites.fluxdata.org/CA-NS2/
CA-NS3	Canada	55.9117	-98.3822	260	ENF	http://sites.fluxdata.org/CA-NS3/
CA-NS4	Canada	55.9117	-98.3822	260	ENF	http://sites.fluxdata.org/CA-NS4/
CA-NS5	Canada	55.8631	-98.485	260	ENF	http://sites.fluxdata.org/CA-NS5/
CA-NS6	Canada	55.9167	-98.9644	244	OSH	http://sites.fluxdata.org/CA-NS6/
CA-NS7	Canada	56.6358	-99.9483	297	OSH	http://sites.fluxdata.org/CA-NS7/
CA-Oas	Canada	53.6289	-106.1978	530	DBF	http://sites.fluxdata.org/CA-Oas/
CA-Obs	Canada	53.9872	-105.1178	628.94	ENF	http://sites.fluxdata.org/CA-Obs/
CA-Qfo	Canada	49.6925	-74.3421	382	ENF	http://sites.fluxdata.org/CA-Qfo/
CA-SF1	Canada	54.485	-105.8176	536	ENF	http://sites.fluxdata.org/CA-SF1/
CA-SF2	Canada	54.2539	-105.8775	520	ENF	http://sites.fluxdata.org/CA-SF2/
CA-SF3	Canada	54.0916	-106.0053	540	OSH	http://sites.fluxdata.org/CA-SF3/
CA-TP1	Canada	42.6609	-80.5595	265	ENF	http://sites.fluxdata.org/CA-TP1/
CA-TP2	Canada	42.7744	-80.4588	212	ENF	http://sites.fluxdata.org/CA-TP2/
CA-TP3	Canada	42.7068	-80.3483	184	ENF	http://sites.fluxdata.org/CA-TP3/
CA-TP4	Canada	42.7102	-80.3574	184	ENF	http://sites.fluxdata.org/CA-TP4/
CA-TPD	Canada	42.6353	-80.5577	260	DBF	http://sites.fluxdata.org/CA-TPD/
CG-Tch	Republic of Congo	-4.2892	11.6564	82	SAV	http://sites.fluxdata.org/CG-Tch/
CH-Cha	Switzerland	47.2102	8.4104	393	GRA	http://sites.fluxdata.org/CH-Cha/
CH-Dav	Switzerland	46.8153	9.8559	1639	ENF	http://sites.fluxdata.org/CH-Dav/
CH-Fru	Switzerland	47.1158	8.5378	982	GRA	http://sites.fluxdata.org/CH-Fru/
CH-Lae	Switzerland	47.4781	8.365	689	MF	http://sites.fluxdata.org/CH-Lae/
CH-Oe1	Switzerland	47.2858	7.7319	450	GRA	http://sites.fluxdata.org/CH-Oe1/
CH-Oe2	Switzerland	47.2863	7.7343	452	CRO	http://sites.fluxdata.org/CH-Oe2/
CN-Cha	China	42.4025	128.0958		MF	http://sites.fluxdata.org/CN-Cha/
CN-Cng	China	44.5934	123.5092		GRA	http://sites.fluxdata.org/CN-Cng/
CN-Dan	China	30.4978	91.0664		GRA	http://sites.fluxdata.org/CN-Dan/
CN-Din	China	23.1733	112.5361		EBF	http://sites.fluxdata.org/CN-Din/
CN-Du2	China	42.0467	116.2836		GRA	http://sites.fluxdata.org/CN-Du2/
CN-Du3	China	42.0551	116.2809		GRA	http://sites.fluxdata.org/CN-Du3/
CN-Ha2	China	37.6086	101.3269		WET	http://sites.fluxdata.org/CN-Ha2/
CN-HaM	China	37.37	101.18		GRA	http://sites.fluxdata.org/CN-HaM/
CN-Qia	China	26.7414	115.0581		ENF	http://sites.fluxdata.org/CN-Qia/
CN-Sw2	China	41.7902	111.8971		GRA	http://sites.fluxdata.org/CN-Sw2/
CZ-BK1	Czech Republic	49.5021	18.5369	875	ENF	http://sites.fluxdata.org/CZ-BK1/
CZ-BK2	Czech Republic	49.4944	18.5429	855	GRA	http://sites.fluxdata.org/CZ-BK2/
CZ-wet	Czech Republic	49.0247	14.7704	426	WET	http://sites.fluxdata.org/CZ-wet/
DE-Akm	Germany	53.8662	13.6834	-1	WET	http://sites.fluxdata.org/DE-Akm/
DE-Geb	Germany	51.1001	10.9143	161.5	CRO	http://sites.fluxdata.org/DE-Geb/
DE-Gri	Germany	50.9495	13.5125	385	GRA	http://sites.fluxdata.org/DE-Gri/
DE-Hai	Germany	51.0792	10.453	430	DBF	http://sites.fluxdata.org/DE-Hai/
DE-Kli	Germany	50.8929	13.5225	478	CRO	http://sites.fluxdata.org/DE-Kli/
DE-Lkb	Germany	49.0996	13.3047	1308	ENF	http://sites.fluxdata.org/DE-Lkb/
DE-Lnf	Germany	51.3282	10.3678	451	DBF	http://sites.fluxdata.org/DE-Lnf/
DE-Obe	Germany	50.7836	13.7196	735	ENF	http://sites.fluxdata.org/DE-Obe/
DE-RuR	Germany	50.6219	6.3041	514.7	GRA	http://sites.fluxdata.org/DE-RuR/
DE-RuS	Germany	50.8659	6.4472	102.8	CRO	http://sites.fluxdata.org/DE-RuS/
DE-Seh	Germany	50.8706	6.4497	103	CRO	http://sites.fluxdata.org/DE-Seh/
DE-SfN	Germany	47.8064	11.3275	590	WET	http://sites.fluxdata.org/DE-SfN/
DE-Spw	Germany	51.8923	14.0337	63	WET	http://sites.fluxdata.org/DE-Spw/
DE-Tha	Germany	50.9636	13.5669	380	ENF	http://sites.fluxdata.org/DE-Tha/
DE-Zrk	Germany	53.8759	12.889	0	WET	http://sites.fluxdata.org/DE-Zrk/
DK-Eng	Denmark	55.6905	12.1918	10	GRA	http://sites.fluxdata.org/DK-Eng/
DK-Fou	Denmark	56.4842	9.5872	51	CRO	http://sites.fluxdata.org/DK-Fou/
DK-NuF	Denmark	64.1308	-51.3861	50	WET	http://sites.fluxdata.org/DK-NuF/
DK-Sor	Denmark	55.4859	11.6446	40	DBF	http://sites.fluxdata.org/DK-Sor/
DK-ZaF	Denmark	74.4814	-20.5545	38	WET	http://sites.fluxdata.org/DK-ZaF/
DK-ZaH	Denmark	74.4732	-20.5503	38	GRA	http://sites.fluxdata.org/DK-ZaH/
ES-Amo	Spain	36.8336	-2.2523	58	OSH	http://sites.fluxdata.org/ES-Amo/
ES-LgS	Spain	37.0979	-2.9658	2267	OSH	http://sites.fluxdata.org/ES-LgS/
ES-LJu	Spain	36.9266	-2.7521	1600	OSH	http://sites.fluxdata.org/ES-LJu/
ES-Ln2	Spain	36.9695	-3.4758	2249	OSH	http://sites.fluxdata.org/ES-Ln2/
FI-Hyy	Finland	61.8475	24.295	181	ENF	http://sites.fluxdata.org/FI-Hyy/
FI-Jok	Finland	60.8986	23.5135	109	CRO	http://sites.fluxdata.org/FI-Jok/
FI-Let	Finland	60.6418	23.9597	119	ENF	http://sites.fluxdata.org/FI-Let/
FI-Lom	Finland	67.9972	24.2092	274	WET	http://sites.fluxdata.org/FI-Lom/
FI-Sod	Finland	67.3619	26.6378	180	ENF	http://sites.fluxdata.org/FI-Sod/
FR-Fon	France	48.4764	2.7801	103	DBF	http://sites.fluxdata.org/FR-Fon/
FR-Gri	France	48.8442	1.9519	125	CRO	http://sites.fluxdata.org/FR-Gri/
FR-LBr	France	44.7171	-0.7693	61	ENF	http://sites.fluxdata.org/FR-LBr/
FR-Pue	France	43.7414	3.5958	270	EBF	http://sites.fluxdata.org/FR-Pue/
GF-Guy	French Guyana	5.2788	-52.9249	48	EBF	http://sites.fluxdata.org/GF-Guy/
GH-Ank	Ghana	5.2685	-2.6942	124	EBF	http://sites.fluxdata.org/GH-Ank/
IT-BCi	Italy	40.5238	14.9574	20	CRO	http://sites.fluxdata.org/IT-BCi/
IT-CA1	Italy	42.3804	12.0266	200	DBF	http://sites.fluxdata.org/IT-CA1/
IT-CA2	Italy	42.3772	12.026	200	CRO	http://sites.fluxdata.org/IT-CA2/
IT-CA3	Italy	42.38	12.0222	197	DBF	http://sites.fluxdata.org/IT-CA3/
IT-Col	Italy	41.8494	13.5881	1560	DBF	http://sites.fluxdata.org/IT-Col/
IT-Cp2	Italy	41.7043	12.3573	19	EBF	http://sites.fluxdata.org/IT-Cp2/
IT-Cpz	Italy	41.7052	12.3761	68	EBF	http://sites.fluxdata.org/IT-Cpz/
IT-Isp	Italy	45.8126	8.6336	210	DBF	http://sites.fluxdata.org/IT-Isp/
IT-La2	Italy	45.9542	11.2853	1350	ENF	http://sites.fluxdata.org/IT-La2/
IT-Lav	Italy	45.9562	11.2813	1353	ENF	http://sites.fluxdata.org/IT-Lav/
IT-MBo	Italy	46.0147	11.0458	1550	GRA	http://sites.fluxdata.org/IT-MBo/
IT-Noe	Italy	40.6061	8.1515	28	CSH	http://sites.fluxdata.org/IT-Noe/
IT-PT1	Italy	45.2009	9.061	60	DBF	http://sites.fluxdata.org/IT-PT1/
IT-Ren	Italy	46.5869	11.4337	1730	ENF	http://sites.fluxdata.org/IT-Ren/
IT-Ro1	Italy	42.4081	11.93	235	DBF	http://sites.fluxdata.org/IT-Ro1/
IT-Ro2	Italy	42.3903	11.9209	160	DBF	http://sites.fluxdata.org/IT-Ro2/
IT-SR2	Italy	43.732	10.291	12	ENF	http://sites.fluxdata.org/IT-SR2/
IT-SRo	Italy	43.7279	10.2844	6	ENF	http://sites.fluxdata.org/IT-SRo/
IT-Tor	Italy	45.8444	7.5781	2160	GRA	http://sites.fluxdata.org/IT-Tor/
JP-MBF	Japan	44.3869	142.3186		DBF	http://sites.fluxdata.org/JP-MBF/
JP-SMF	Japan	35.2617	137.0788		MF	http://sites.fluxdata.org/JP-SMF/
MY-PSO	Malaysia	2.973	102.3062		EBF	http://sites.fluxdata.org/MY-PSO/
NL-Hor	Netherlands	52.2404	5.0713	2.2	GRA	http://sites.fluxdata.org/NL-Hor/
NL-Loo	Netherlands	52.1666	5.7436	25	ENF	http://sites.fluxdata.org/NL-Loo/
NO-Adv	Norway	78.186	15.923	17	WET	http://sites.fluxdata.org/NO-Adv/
NO-Blv	Norway	78.9216	11.8311	25	SNO	http://sites.fluxdata.org/NO-Blv/
PA-SPn	Panama	9.3181	-79.6346	78	DBF	http://sites.fluxdata.org/PA-SPn/
PA-SPs	Panama	9.3138	-79.6314	68	GRA	http://sites.fluxdata.org/PA-SPs/
RU-Che	Russia	68.613	161.3414	4	WET	http://sites.fluxdata.org/RU-Che/
RU-Cok	Russia	70.8291	147.4943	48	OSH	http://sites.fluxdata.org/RU-Cok/
RU-Fyo	Russia	56.4615	32.9221	265	ENF	http://sites.fluxdata.org/RU-Fyo/
RU-Ha1	Russia	54.7252	90.0022	446	GRA	http://sites.fluxdata.org/RU-Ha1/
RU-Sam	Russia	72.3733	126.4978		GRA	http://sites.fluxdata.org/RU-Sam/
RU-SkP	Russia	62.255	129.168	246	DNF	http://sites.fluxdata.org/RU-SkP/
RU-Tks	Russia	71.5943	128.8878	7	GRA	http://sites.fluxdata.org/RU-Tks/
RU-Vrk	Russia	67.0547	62.9405	100	CSH	http://sites.fluxdata.org/RU-Vrk/
SD-Dem	Sudan	13.2829	30.4783	500	SAV	http://sites.fluxdata.org/SD-Dem/
SE-St1	Sweden	68.3541	19.0503	351	WET	http://sites.fluxdata.org/SE-St1/
SN-Dhr	Senegal	15.4028	-15.4322	40	SAV	http://sites.fluxdata.org/SN-Dhr/
US-AR1	USA	36.4267	-99.42	611	GRA	http://sites.fluxdata.org/US-AR1/
US-AR2	USA	36.6358	-99.5975	646	GRA	http://sites.fluxdata.org/US-AR2/
US-ARb	USA	35.5497	-98.0402	424	GRA	http://sites.fluxdata.org/US-ARb/
US-ARc	USA	35.5465	-98.04	424	GRA	http://sites.fluxdata.org/US-ARc/
US-ARM	USA	36.6058	-97.4888	314	CRO	http://sites.fluxdata.org/US-ARM/
US-Atq	USA	70.4696	-157.4089	15	WET	http://sites.fluxdata.org/US-Atq/
US-Blo	USA	38.8953	-120.6328	1315	ENF	http://sites.fluxdata.org/US-Blo/
US-Cop	USA	38.09	-109.39	1520	GRA	http://sites.fluxdata.org/US-Cop/
US-CRT	USA	41.6285	-83.3471	180	CRO	http://sites.fluxdata.org/US-CRT/
US-GBT	USA	41.3658	-106.2397	3191	ENF	http://sites.fluxdata.org/US-GBT/
US-GLE	USA	41.3665	-106.2399	3197	ENF	http://sites.fluxdata.org/US-GLE/
US-Goo	USA	34.2547	-89.8735	87	GRA	http://sites.fluxdata.org/US-Goo/
US-Ha1	USA	42.5378	-72.1715	340	DBF	http://sites.fluxdata.org/US-Ha1/
US-IB2	USA	41.8406	-88.241	226.5	GRA	http://sites.fluxdata.org/US-IB2/
US-Ivo	USA	68.4865	-155.7503	568	WET	http://sites.fluxdata.org/US-Ivo/
US-KS1	USA	28.4583	-80.6709	1	ENF	http://sites.fluxdata.org/US-KS1/
US-KS2	USA	28.6086	-80.6715	3	CSH	http://sites.fluxdata.org/US-KS2/
US-Lin	USA	36.3566	-119.8423	131	CRO	http://sites.fluxdata.org/US-Lin/
US-Los	USA	46.0827	-89.9792	480	WET	http://sites.fluxdata.org/US-Los/
US-LWW	USA	34.9604	-97.9789	365	GRA	http://sites.fluxdata.org/US-LWW/
US-Me1	USA	44.5794	-121.5	896	ENF	http://sites.fluxdata.org/US-Me1/
US-Me2	USA	44.4523	-121.5574	1253	ENF	http://sites.fluxdata.org/US-Me2/
US-Me3	USA	44.3154	-121.6078	1005	ENF	http://sites.fluxdata.org/US-Me3/
US-Me4	USA	44.4992	-121.6224	922	ENF	http://sites.fluxdata.org/US-Me4/
US-Me5	USA	44.4372	-121.5668	1188	ENF	http://sites.fluxdata.org/US-Me5/
US-Me6	USA	44.3233	-121.6078	998	ENF	http://sites.fluxdata.org/US-Me6/
US-MMS	USA	39.3232	-86.4131	275	DBF	http://sites.fluxdata.org/US-MMS/
US-Myb	USA	38.0498	-121.7651	-1	WET	http://sites.fluxdata.org/US-Myb/
US-Ne1	USA	41.1651	-96.4766	361	CRO	http://sites.fluxdata.org/US-Ne1/
US-Ne2	USA	41.1649	-96.4701	362	CRO	http://sites.fluxdata.org/US-Ne2/
US-Ne3	USA	41.1797	-96.4397	363	CRO	http://sites.fluxdata.org/US-Ne3/
US-NR1	USA	40.0329	-105.5464	3050	ENF	http://sites.fluxdata.org/US-NR1/
US-Oho	USA	41.5545	-83.8438	230	DBF	http://sites.fluxdata.org/US-Oho/
US-ORv	USA	40.0201	-83.0183	221	WET	http://sites.fluxdata.org/US-ORv/
US-PFa	USA	45.9459	-90.2723	470	MF	http://sites.fluxdata.org/US-PFa/
US-Prr	USA	65.1237	-147.4876	210	ENF	http://sites.fluxdata.org/US-Prr/
US-SRC	USA	31.9083	-110.8395	991	OSH	http://sites.fluxdata.org/US-SRC/
US-SRG	USA	31.7894	-110.8277	1291	GRA	http://sites.fluxdata.org/US-SRG/
US-SRM	USA	31.8214	-110.8661	1120	WSA	http://sites.fluxdata.org/US-SRM/
US-Sta	USA	41.3966	-106.8024	2069	OSH	http://sites.fluxdata.org/US-Sta/
US-Syv	USA	46.242	-89.3477	540	MF	http://sites.fluxdata.org/US-Syv/
US-Ton	USA	38.4316	-120.966	177	WSA	http://sites.fluxdata.org/US-Ton/
US-Tw1	USA	38.1074	-121.6469	-9	WET	http://sites.fluxdata.org/US-Tw1/
US-Tw2	USA	38.1047	-121.6433	-5	CRO	http://sites.fluxdata.org/US-Tw2/
US-Tw3	USA	38.1159	-121.6467	-9	CRO	http://sites.fluxdata.org/US-Tw3/
US-Tw4	USA	38.103	-121.6414	-5	WET	http://sites.fluxdata.org/US-Tw4/
US-Twt	USA	38.1087	-121.653		CRO	http://sites.fluxdata.org/US-Twt/
US-UMB	USA	45.5598	-84.7138	234	DBF	http://sites.fluxdata.org/US-UMB/
US-UMd	USA	45.5625	-84.6975	239	DBF	http://sites.fluxdata.org/US-UMd/
US-Var	USA	38.4133	-120.9507	129	GRA	http://sites.fluxdata.org/US-Var/
US-WCr	USA	45.8059	-90.0799	520	DBF	http://sites.fluxdata.org/US-WCr/
US-Whs	USA	31.7438	-110.0522	1370	OSH	http://sites.fluxdata.org/US-Whs/
US-Wi0	USA	46.6188	-91.0814	349	ENF	http://sites.fluxdata.org/US-Wi0/
US-Wi1	USA	46.7305	-91.2329	352	DBF	http://sites.fluxdata.org/US-Wi1/
US-Wi2	USA	46.6869	-91.1528	395	ENF	http://sites.fluxdata.org/US-Wi2/
US-Wi3	USA	46.6347	-91.0987	411	DBF	http://sites.fluxdata.org/US-Wi3/
US-Wi4	USA	46.7393	-91.1663	352	ENF	http://sites.fluxdata.org/US-Wi4/
US-Wi5	USA	46.6531	-91.0858	353	ENF	http://sites.fluxdata.org/US-Wi5/
US-Wi6	USA	46.6249	-91.2982	371	OSH	http://sites.fluxdata.org/US-Wi6/
US-Wi7	USA	46.6491	-91.0693	335	OSH	http://sites.fluxdata.org/US-Wi7/
US-Wi8	USA	46.7223	-91.2524	348	DBF	http://sites.fluxdata.org/US-Wi8/
US-Wi9	USA	46.6188	-91.0814	350	ENF	http://sites.fluxdata.org/US-Wi9/
US-Wkg	USA	31.7365	-109.9419	1531	GRA	http://sites.fluxdata.org/US-Wkg/
US-WPT	USA	41.4646	-82.9962	175	WET	http://sites.fluxdata.org/US-WPT/
ZA-Kru	South Africa	-25.0197	31.4969	359	SAV	http://sites.fluxdata.org/ZA-Kru/
ZM-Mon	Zambia	-15.4378	23.2528	1053	DBF	http://sites.fluxdata.org/ZM-Mon/
